stop_id,stop_name,stop_lat,stop_lon,color
01METRO-Zapotitlan,Metro Zapotitlán,19.29666,-99.03431,B99E51
01METRO-Zapata,Metro Zapata,19.37085,-99.1656,AD9B0C
01METRO-Tlaltenco,Metro Tlaltenco,19.29435,-99.02403,B99E51
01METRO-Tlahuac,Metro Tláhuac,19.28602,-99.0142,B99E51
01METRO-Tezonco,Metro Tezonco,19.30631,-99.06527,B99E51
01METRO-SanAndresTomatlan,Metro San Andrés Tomatlán,19.32815,-99.10452,B99E51
01METRO-PerifericoOriente,Metro Periférico Oriente,19.31761,-99.07451,B99E51
01METRO-ParquedelosVenados,Metro Parque de los Venados,19.37066,-99.15872,B99E51
01METRO-Olivos,Metro Olivos,19.30432,-99.05951,B99E51
01METRO-Nopalera,Metro Nopalera,19.29996,-99.04599,B99E51
01METRO-Mixcoac,Metro Mixcoac,19.3757,-99.18673,B99E51
01METRO-Mexicaltzingo,Metro Mexicaltzingo,19.35776,-99.12314,B99E51
01METRO-LomasEstrella,Metro Lomas Estrella,19.32215,-99.09575,B99E51
01METRO-InsurgentesSur,Metro Insurgentes Sur,19.37355,-99.17825,B99E51
01METRO-Hospital20deNoviembre,Metro Hospital 20 de Noviembre,19.37201,-99.17088,B99E51
01METRO-Ermita,Metro Ermita,19.35982,-99.14163,0071C1
01METRO-EjeCentral,Metro Eje Central,19.36134,-99.15142,B99E51
01METRO-Culhuacan,Metro Culhuacán,19.33685,-99.10896,B99E51
01METRO-Calle11,Metro Calle 11,19.32047,-99.08587,B99E51
01METRO-Atlalilco,Metro Atlalilco,19.35275,-99.10624,B99E51
01METRO-VilladeAragon,Metro Villa de Aragón,19.46167,-99.06138,118751
01METRO-Tepito,Metro Tepito,19.44279,-99.12407,118751
01METRO-SanLazaro,Metro San Lázaro,19.43237,-99.11296,118751
01METRO-RomeroRubio,Metro Romero Rubio,19.44084,-99.0942,118751
01METRO-RiodelosRemedios,Metro Río de los Remedios,19.49069,-99.04679,118751
01METRO-RicardoFloresMagon,Metro Ricardo Flores Magón,19.43657,-99.10371,118751
01METRO-PlazaAragon,Metro Plaza Aragón,19.52848,-99.03018,118751
01METRO-Olimpica,Metro Olímpica,19.52135,-99.03334,118751
01METRO-Oceania,Metro Oceanía,19.44569,-99.08722,118751
01METRO-Nezahualcoyotl,Metro Nezahualcóyotl,19.47289,-99.05461,118751
01METRO-Muzquiz,Metro Múzquiz,19.50149,-99.04207,118751
01METRO-Morelos,Metro Morelos,19.43917,-99.11957,118751
01METRO-Lagunilla,Metro Lagunilla,19.44322,-99.13023,118751
01METRO-Impulsora,Metro Impulsora,19.48575,-99.04896,118751
01METRO-Guerrero,Metro Guerrero,19.44514,-99.14614,AD9B0C
01METRO-Garibaldi,Metro Garibaldi/Lagunilla,19.44389,-99.13787,118751
01METRO-Ecatepec,Metro Ecatepec,19.51513,-99.03607,118751
01METRO-DeportivoOceania,Metro Deportivo Oceanía,19.45101,-99.07933,118751
01METRO-CiudadAzteca,Metro Ciudad Azteca,19.53451,-99.02751,118751
01METRO-Buenavista,Metro Buenavista,19.44619,-99.15235,118751
01METRO-BosquesdeAragon,Metro Bosque de Aragón,19.45809,-99.06929,118751
01METRO-Tepalcates,Metro Tepalcates,19.39128,-99.04633,A02D96
01METRO-SantaMarta,Metro Santa Marta,19.36031,-98.99518,A02D96
01METRO-PenonViejo,Metro Penón Viejo,19.37331,-99.01705,A02D96
01METRO-Pantitlan,Metro Pantitlán,19.4153,-99.07192,A02D96
01METRO-LosReyes,Metro Los Reyes,19.35904,-98.97687,A02D96
01METRO-LaPaz,Metro La Paz,19.35056,-98.96094,A02D96
01METRO-Guelatao,Metro Guelatao,19.38515,-99.03566,A02D96
01METRO-CanaldeSanJuan,Metro Canal de San Juan,19.39876,-99.05942,A02D96
01METRO-AgricolaOriental,Metro Agrícola Oriental,19.40462,-99.06957,A02D96
01METRO-Acatitla,Metro Acatitla,19.36472,-99.00567,A02D96
01METRO-Velodromo,Metro Velódromo,19.40854,-99.10316,512826
01METRO-Tacubaya,Metro Tacubaya,19.40146,-99.18776,512826
01METRO-Puebla,Metro Puebla,19.40719,-99.08239,512826
01METRO-Patriotismo,Metro Patriotismo,19.40611,-99.17892,512826
01METRO-Mixiuhca,Metro Mixiuhca,19.40837,-99.11297,512826
01METRO-LazaroCardenas,Metro Lázaro Cárdenas,19.40722,-99.14463,512826
01METRO-Jamaica,Metro Jamaica,19.4091,-99.12235,512826
01METRO-CiudadDeportiva,Metro Ciudad Deportiva,19.40843,-99.09125,512826
01METRO-Chilpancingo,Metro Chilpancingo,19.40593,-99.16852,512826
01METRO-Chabacano,Metro Chabacano,19.40851,-99.13397,0071C1
01METRO-CentroMedico,Metro Centro Médico,19.40656,-99.15603,AD9B0C
01METRO-UAMI,Metro UAM-I,19.35106,-99.07482,118749
01METRO-SantaAnita,Metro Santa Anita,19.40412,-99.12066,118749
01METRO-SanJuandeLetran,Metro San Juan de Letrán,19.43158,-99.14125,118749
01METRO-SaltodelAgua,Metro Salto del Agua,19.42772,-99.14185,118749
01METRO-Obrera,Metro Obrera,19.41324,-99.14404,118749
01METRO-LaViga,Metro La Viga,19.40671,-99.12627,118749
01METRO-Iztapalapa,Metro Iztapalapa,19.35783,-99.09345,118749
01METRO-Iztacalco,Metro Iztacalco,19.38829,-99.11211,118749
01METRO-Escuadron201,Metro Escuadrón 201,19.36484,-99.10948,118749
01METRO-Doctores,Metro Doctores,19.42155,-99.14319,118749
01METRO-Coyuya,Metro Coyuya,19.3983,-99.11348,118749
01METRO-Constitucionde1917,Metro Constitución de 1917,19.34597,-99.0638,118749
01METRO-CerrodelaEstrella,Metro Cerro de la Estrella,19.35605,-99.08562,118749
01METRO-BellasArtes,Metro Bellas Artes,19.43701,-99.14042,0071C1
01METRO-Apatlaco,Metro Apatlaco,19.3791,-99.10949,118749
01METRO-Aculco,Metro Aculco,19.37321,-99.1077,118749
01METRO-Tacuba,Metro Tacuba,19.45823,-99.18717,0071C1
01METRO-SanPedrodelosPinos,Metro San Pedro de los Pinos,19.39149,-99.18581,E87511
01METRO-SanJoaquin,Metro San Joaquín,19.44501,-99.19177,E87511
01METRO-SanAntonio,Metro San Antonio,19.38434,-99.18661,E87511
01METRO-Refineria,Metro Refinería,19.46947,-99.19051,E87511
01METRO-Polanco,Metro Polanco,19.43355,-99.19093,E87511
01METRO-ElRosario,Metro El Rosario,19.50474,-99.20012,E87511
01METRO-Constituyentes,Metro Constituyentes,19.41177,-99.19135,E87511
01METRO-Camarones,Metro Camarones,19.47911,-99.19004,E87511
01METRO-BarrancadelMuerto,Metro Barranca del Muerto,19.3615,-99.18926,E87511
01METRO-Auditorio,Metro Auditorio,19.42576,-99.19203,E87511
01METRO-AquilesSerdan,Metro Aquiles Serdán,19.49064,-99.19535,E87511
01METRO-Vallejo,Metro Vallejo,19.48985,-99.156,D81E05
01METRO-Tezozomoc,Metro Tezozómoc,19.4949,-99.19602,D81E05
01METRO-Norte45,Metro Norte 45,19.48867,-99.16299,D81E05
01METRO-MartinCarrera,Metro Martín Carrera,19.48294,-99.10748,D81E05
01METRO-Lindavista,Metro Lindavista,19.48811,-99.13507,D81E05
01METRO-LaVilla-Basilica,Metro La Villa/Basílica,19.48174,-99.11837,D81E05
01METRO-InstitutodelPetroleo,Metro Instituto del Petróleo,19.49104,-99.14813,D81E05
01METRO-Ferreria,Metro Ferrería/Arena Ciudad de México,19.49067,-99.17415,D81E05
01METRO-Deportivo18deMarzo,Metro Deportivo 18 de Marzo,19.48348,-99.1253,AD9B0C
01METRO-Azcapotzalco,Metro UAM Azcapotzalco,19.49091,-99.18627,D81E05
01METRO-ValleGomez,Metro Valle Gómez,19.45887,-99.11949,F9D616
01METRO-TerminalAerea,Metro Terminal Aérea,19.43427,-99.08808,F9D616
01METRO-Politecnico,Metro Politécnico,19.50068,-99.14921,F9D616
01METRO-Misterios,Metro Misterios,19.46311,-99.13024,F9D616
01METRO-LaRaza,Metro La Raza,19.46967,-99.13652,AD9B0C
01METRO-Hangares,Metro Hangares,19.42435,-99.08813,F9D616
01METRO-EduardoMolina,Metro Eduardo Molina,19.4514,-99.1053,F9D616
01METRO-Consulado,Metro Consulado,19.45514,-99.11354,F9D616
01METRO-AutobusesdelNorte,Metro Autobuses del Norte,19.47907,-99.14065,F9D616
01METRO-Aragon,Metro Aragón,19.45126,-99.09621,F9D616
01METRO-Talisman,Metro Talismán,19.47436,-99.10801,7FBCAA
01METRO-FrayServando,Metro Fray Servando,19.42159,-99.12053,7FBCAA
01METRO-Candelaria,Metro Candelaria,19.42876,-99.11943,7FBCAA
01METRO-CanaldelNorte,Metro Canal del Norte,19.44895,-99.11613,7FBCAA
01METRO-Bondojito,Metro Bondojito,19.46463,-99.11198,7FBCAA
01METRO-Viveros/DerechosHumanos,Metro Viveros/ Derechos Humanos,19.35346,-99.176,AD9B0C
01METRO-Universidad,Metro Universidad,19.32435,-99.17394,AD9B0C
01METRO-Tlatelolco,Metro Tlatelolco,19.45506,-99.14313,AD9B0C
01METRO-Potrero,Metro Potrero,19.47719,-99.13201,AD9B0C
01METRO-NinosHeroes,Metro Niños Héroes/ Poder Judicial CDMX,19.41948,-99.15036,AD9B0C
01METRO-MiguelAngeldeQuevedo,Metro Miguel Ángel de Quevedo,19.34625,-99.18076,AD9B0C
01METRO-Juarez,Metro Juárez,19.43325,-99.14768,AD9B0C
01METRO-IndiosVerdes,Metro Indios Verdes,19.49534,-99.11951,AD9B0C
01METRO-HospitalGeneral,Metro Hospital General,19.41376,-99.15325,AD9B0C
01METRO-Hidalgo,Metro Hidalgo,19.43738,-99.14678,AD9B0C
01METRO-Eugenia,Metro Eugenia,19.38617,-99.1572,AD9B0C
01METRO-Etiopia/PlazadelaTransparencia,Metro Etiopía/Plaza de la Transparencia,19.39592,-99.15603,AD9B0C
01METRO-DivisiondelNorte,Metro División del Norte,19.37918,-99.15948,AD9B0C
01METRO-Coyoacan,Metro Coyoacán,19.36136,-99.17086,AD9B0C
01METRO-Copilco,Metro Copilco,19.3361,-99.17697,AD9B0C
01METRO-Balderas,Metro Balderas,19.42648,-99.14906,AD9B0C
01METRO-Zocalo,Metro Zócalo,19.4325,-99.13225,0071C1
01METRO-Xola,Metro Xola,19.39521,-99.13781,0071C1
01METRO-VilladeCortes,Metro Villa de Cortés,19.38758,-99.13896,0071C1
01METRO-Viaducto,Metro Viaducto,19.40087,-99.1369,0071C1
01METRO-Tasquena,Metro Tasquena,19.34376,-99.13953,0071C1
01METRO-SanCosme,Metro San Cosme,19.4419,-99.16066,0071C1
01METRO-SanAntonioAbad,Metro San Antonio Abad,19.41602,-99.13454,0071C1
01METRO-Revolucion,Metro Revolución,19.43923,-99.15423,0071C1
01METRO-Portales,Metro Portales,19.36992,-99.14157,0071C1
01METRO-Popotla,Metro Popotla,19.45291,-99.17549,0071C1
01METRO-PinoSuarez,Metro Pino Suárez,19.42438,-99.13294,0071C1
01METRO-Panteones,Metro Panteones,19.45864,-99.20295,0071C1
01METRO-Normal,Metro Normal,19.44456,-99.16727,0071C1
01METRO-Nativitas,Metro Nativitas,19.38005,-99.14002,0071C1
01METRO-GeneralAnaya,Metro General Anaya,19.35324,-99.14501,0071C1
01METRO-Cuitlahuac,Metro Cuitláhuac,19.45725,-99.1815,0071C1
01METRO-CuatroCaminos,Metro Cuatro Caminos,19.45959,-99.21584,0071C1
01METRO-ColegioMilitar,Metro Colegio Militar,19.44927,-99.17178,0071C1
01METRO-Allende,Metro Allende,19.43556,-99.13687,0071C1
01METRO-Moctezuma,Metro Moctezuma,19.42685,-99.1098,F94F8E
01METRO-Zaragoza,Metro Zaragoza,19.41192,-99.08229,F94F8E
01METRO-Sevilla,Metro Sevilla,19.42185,-99.17112,F94F8E
01METRO-BoulevardPuertoAereo,Metro Boulevard Puerto Aéreo,19.41994,-99.09626,F94F8E
01METRO-Observatorio,Metro Observatorio,19.39828,-99.2004,F94F8E
01METRO-Merced,Metro Merced,19.42549,-99.12503,F94F8E
01METRO-Juanacatlan,Metro Juanacatlán,19.41295,-99.18198,F94F8E
01METRO-IsabellaCatolica,Metro Isabel la Católica,19.42639,-99.13783,118749
01METRO-Insurgentes,Metro Insurgentes,19.42365,-99.16329,F94F8E
01METRO-GomezFarias,Metro Gómez Farías,19.41648,-99.09021,F94F8E
01METRO-Cuauhtemoc,Metro Cuauhtémoc,19.42566,-99.1546,F94F8E
01METRO-Chapultepec,Metro Chapultepec,19.42075,-99.17642,F94F8E
01METRO-Balbuena,Metro Balbuena,19.42336,-99.10277,F94F8E
METROBUSL1-INDIOSVERDES,Metrobús Indios Verdes,19.49682,-99.11972,D40D0D
METROBUSL1-DVO18MARZO,Metrobús Deportivo 18 de Marzo,19.48629,-99.12453,D40D0D
METROBUSL1-EUZKARO,Metrobús Euzkaro,19.48252,-99.12763,D40D0D
METROBUSL1-POTRERO,Metrobús Potrero,19.47664,-99.13247,D40D0D
METROBUSL1-LARAZA,Metrobús La Raza,19.4687,-99.13899,D40D0D
METROBUSL1-CIRCUITO,Metrobús Circuito,19.46261,-99.14401,D40D0D
METROBUSL1-SANSIMON,Metrobús San Simón,19.45963,-99.14642,D40D0D
METROBUSL1-MANUELGLEZ,Metrobús Manuel González,19.4571,-99.14893,D40D0D
METROBUSL1-BUENAVISTA,Metrobús Buenavista,19.44684,-99.15313,D40D0D
METROBUSL1-ELCHOPO,Metrobús El Chopo,19.44335,-99.15441,D40D0D
METROBUSL1-REVOLUCION,Metrobús Revolución,19.44035,-99.15541,D40D0D
METROBUSL1-PLAZAREPU,Metrobús Plaza de la República,19.43605,-99.15732,D40D0D
METROBUSL1-REFORMA,Metrobús Reforma,19.4329,-99.15871,D40D0D
METROBUSL1-HAMBURGO,Metrobús Hamburgo,19.42752,-99.16124,D40D0D
METROBUSL1-GLORIETA,Metrobús Glorieta Insurgentes,19.42413,-99.16324,D40D0D
METROBUSL1-DURANGO,Metrobús Durango,19.41993,-99.16406,D40D0D
METROBUSL1-ALVAROOBRE,Metrobús Álvaro Obregón,19.41655,-99.16506,D40D0D
METROBUSL1-SONORA,Metrobús Sonora,19.41327,-99.16612,D40D0D
METROBUSL1-CAMPECHE,Metrobús Campeche,19.40977,-99.16727,D40D0D
METROBUSL1-CHILPANCINGO,Metrobús Chilpancingo,19.40658,-99.1683,D40D0D
METROBUSL1-NVOLEON,Metrobús Nuevo León,19.40204,-99.16978,D40D0D
METROBUSL1-LAPIEDAD,Metrobús La Piedad,19.39797,-99.17111,D40D0D
METROBUSL1-POLIFORUM,Metrobús Poliforum,19.3933,-99.17262,D40D0D
METROBUSL1-NAPOLES,Metrobús Nápoles,19.38969,-99.17379,D40D0D
METROBUSL1-COLDELVALLE,Metrobús Colonia del Valle,19.38569,-99.17509,D40D0D
METROBUSL1-CIUDADDEPORTES,Metrobús Ciudad de los Deportes,19.38245,-99.17614,D40D0D
METROBUSL1-PARQUEHUND,Metrobús Parque Hundido,19.37959,-99.17707,D40D0D
METROBUSL1-FELIXCUEVAS,Metrobús Felix Cuevas,19.37425,-99.1788,D40D0D
METROBUSL1-RIOCHURU,Metrobús Río Churubusco,19.36878,-99.18057,D40D0D
METROBUSL1-TEATROINSURG,Metrobús Teatro de los Insurgentes,19.36493,-99.18183,D40D0D
METROBUSL1-JOSEMRIAVELAS,Metrobús José María Velasco,19.36176,-99.18285,D40D0D
METROBUSL1-FRANCIA,Metrobús Francia,19.35848,-99.18391,D40D0D
METROBUSL1-OLIVO,Metrobús Olivo,19.35463,-99.18516,D40D0D
METROBUSL1-ALTAVISTA,Metrobús Altavista,19.3509,-99.18636,D40D0D
METROBUSL1-BOMBILLA,Metrobús La Bombilla,19.34682,-99.18773,D40D0D
METROBUSL1-DRGALVEZ,Metrobús Dr. Gálvez,19.34071,-99.19004,D40D0D
METROBUSL1-CU,Metrobús Ciudad Universitaria,19.32295,-99.18847,D40D0D
METROBUSL1-CCU,Metrobús CCU,19.31516,-99.18753,D40D0D
METROBUSL1-PERISUR,Metrobús Perisur,19.30411,-99.18613,D40D0D
METROBUSL1-VILLAOLIMPICA,Metrobús Villa Olímpica,19.29909,-99.18551,D40D0D
METROBUSL1-CORREGIDORA,Metrobús Corregidora,19.29407,-99.18103,D40D0D
METROBUSL1-AYUNTAMIENTO,Metrobús Ayuntamiento,19.2926,-99.17754,D40D0D
METROBUSL1-FUENTESBROTAN,Metrobús Fuentes Brotantes,19.2881,-99.1746,D40D0D
METROBUSL1-STAURSULA,Metrobús Santa Ursula,19.28326,-99.1753,D40D0D
METROBUSL1-LAJOYA,Metrobús La Joya,19.28032,-99.16999,D40D0D
METROBUSL1-CAMINERO,Metrobús El Caminero,19.27931,-99.16908,D40D0D
METROBUSL2-TEPALCATES,Metrobús Tepalcates,19.39077,-99.04761,8D1A96
METROBUSL2-NICOLASBRAVO,Metrobús Nicolás Bravo,19.3935,-99.05093,8D1A96
METROBUSL2-CANALSANJUAN,Metrobús Canal de San Juan,19.39671,-99.05655,8D1A96
METROBUSL2-GRALANTONIOLEO,Metrobús General Antonio de León,19.38538,-99.05173,8D1A96
METROBUSL2-CONSTAPATZIN,Metrobús Constitución de Apatztingán,19.38903,-99.05985,8D1A96
METROBUSL2-CCHOTE,Metrobús CCH Oriente,19.38333,-99.06079,8D1A96
METROBUSL2-LEYESREFORMA,Metrobús Leyes de Reforma,19.38347,-99.06582,8D1A96
METROBUSL2-DELMORAL,Metrobús Del Moral,19.3842,-99.07092,8D1A96
METROBUSL2-RIOFRIO,Metrobús Río Frío,19.38763,-99.07428,8D1A96
METROBUSL2-ROJOGOMEZ,Metrobús Rojo Gómez,19.38451,-99.07637,8D1A96
METROBUSL2-RIOMAYO,Metrobús Río Mayo,19.38696,-99.08002,8D1A96
METROBUSL2-RIOTECOLUTLA,Metrobús Río Tecolutla,19.38906,-99.08315,8D1A96
METROBUSL2-RODEO,Metrobús El Rodeo,19.39166,-99.08708,8D1A96
METROBUSL2-UPIICSA,Metrobús UPIICSA,19.39394,-99.09039,8D1A96
METROBUSL2-IZTACALCO,Metrobús Iztacalco,19.39655,-99.09596,8D1A96
METROBUSL2-GOMA,Metrobús Goma,19.39689,-99.10001,8D1A96
METROBUSL2-TLACOTAL,Metrobús Tlacotal,19.39722,-99.10391,8D1A96
METROBUSL2-CANELA,Metrobús Canela,19.39785,-99.10934,8D1A96
METROBUSL2-COYUYA,Metrobús Coyuya,19.39828,-99.11678,8D1A96
METROBUSL2-LAVIGA,Metrobús La Viga,19.39806,-99.12456,8D1A96
METROBUSL2-ANDRESMOLI,Metrobús Andrés Molina,19.39768,-99.1297,8D1A96
METROBUSL2-AMERICAS,Metrobús Las Américas,19.39346,-99.13435,8D1A96
METROBUSL2-XOLA,Metrobús Xola,19.39437,-99.14025,8D1A96
METROBUSL2-ALAMOS,Metrobús Alamos,19.39475,-99.14294,8D1A96
METROBUSL2-CENTROSCOP,Metrobús Centro SCOP,19.39525,-99.14676,8D1A96
METROBUSL2-DRVERTIZ,Metrobús Doctor Vértiz,19.39561,-99.15171,8D1A96
METROBUSL2-ETIOPIA,Metrobús Etiopía,19.39584,-99.155,8D1A96
METROBUSL2-AMORES,Metrobús Amores,19.39688,-99.16382,8D1A96
METROBUSL2-VIADUCTO,Metrobús Viaducto,19.40131,-99.16809,8D1A96
METROBUSL2-ESCANDON,Metrobús Escandón,19.40441,-99.17383,8D1A96
METROBUSL2-PATRIOTISMO,Metrobús Patriotismo,19.40557,-99.17737,8D1A96
METROBUSL2-DELASALLE,Metrobús De La Salle,19.40759,-99.18351,8D1A96
METROBUSL2-PARQUELIRA,Metrobús Parque Lira,19.40779,-99.1891,8D1A96
METROBUSL2-ANTONMACEO,Metrobús Antonio Maceo,19.40487,-99.1859,8D1A96
METROBUSL2-TACUBAYA,Metrobús Tacubaya,19.40199,-99.18701,8D1A96
METROBUSL3-TENAYUCA,Metrobús Tenayuca,19.52862,-99.17011,7A9A01
METROBUSL3-SANJOSEESCA,Metrobús San José de la Escalera,19.52272,-99.16556,7A9A01
METROBUSL3-TRESANEGAS,Metrobús Tres Anegas,19.51551,-99.16193,7A9A01
METROBUSL3-JUPITER,Metrobús Júpiter,19.50861,-99.15924,7A9A01
METROBUSL3-PATERA,Metrobús La Patera,19.50366,-99.15727,7A9A01
METROBUSL3-PNTE146,Metrobús Poniente 146,19.49999,-99.15588,7A9A01
METROBUSL3-MONTEVIDEO,Metrobús Montevideo,19.49611,-99.15446,7A9A01
METROBUSL3-PNTE134,Metrobús Poniente 134,19.49269,-99.15317,7A9A01
METROBUSL3-PNTE 128,Metrobús Poniente 128,19.48955,-99.15196,7A9A01
METROBUSL3-MAGDASALINAS,Metrobús Magdalena de las Salinas,19.48388,-99.14986,7A9A01
METROBUSL3-COLTONGO,Metrobús Coltongo,19.47985,-99.14833,7A9A01
METROBUSL3-CUITLAHUAC,Metrobús Cuitláhuac,19.47415,-99.14616,7A9A01
METROBUSL3-HEROENACOZA,Metrobús Héroe de Nacozari,19.47116,-99.14504,7A9A01
METROBUSL3-HOSPRAZA,Metrobús Hospital La Raza,19.46799,-99.14385,7A9A01
METROBUSL3-TOLNAHUAC,Metrobús Tolnáhuac,19.45989,-99.14406,7A9A01
METROBUSL3-TLATELOLCO,Metrobús Tlatelolco,19.45556,-99.14505,7A9A01
METROBUSL3-RFLORESMAGON,Metrobús Ricardo Flores Magón,19.45178,-99.1459,7A9A01
METROBUSL3-GUERRERO,Metrobús Guerrero,19.44603,-99.14721,7A9A01
METROBUSL3-MINA,Metrobús Mina,19.44058,-99.14855,7A9A01
METROBUSL3-HIDALGO,Metrobús Hidalgo,19.43601,-99.14721,7A9A01
METROBUSL3-JUAREZ,Metrobús Juárez,19.43129,-99.14803,7A9A01
METROBUSL3-BALDERAS,Metrobús Balderas,19.42807,-99.14874,7A9A01
METROBUSL3-CUAUHTEMOC,Metrobús Cuauhtémoc,19.42496,-99.1537,7A9A01
METROBUSL3-JARDINPUSHK,Metrobús Jardín Pushkin,19.4204,-99.15408,7A9A01
METROBUSL3-HOSPGENERAL,Metrobús Hospital General,19.41444,-99.15456,7A9A01
METROBUSL3-DRMARQUEZ,Metrobús Dr. Márquez,19.41111,-99.15484,7A9A01
METROBUSL3-CENTROMEDICO,Metrobús Centro Médico,19.40727,-99.15513,7A9A01
METROBUSL3-OBREROMUNDIAL,Metrobús Obrero Mundial,19.40106,-99.1556,7A9A01
METROBUSL3-LUZSAVINON,Metrobús Luz Saviñón,19.39091,-99.15644,7A9A01
METROBUSL3-EUGENIA,Metrobús Eugenia,19.38595,-99.15723,7A9A01
METROBUSL3-DIVISIONNTE,Metrobús División del Norte,19.37993,-99.15897,7A9A01
METROBUSL3-MIGUELLAURENT,Metrobús Miguel Laurent,19.37434,-99.16038,7A9A01
METROBUSL4-CUAUHTEMOC0,Metrobús Cuahutémoc,19.44259,-99.15242,FF9A03
METROBUSL4-MUSEOSCARL0,Metrobús Museo San Carlos,19.43827,-99.15078,FF9A03
METROBUSL4-BELLASARTES0,Metrobús Bellas Artes,19.43641,-99.14182,FF9A03
METROBUSL4-TEATROBLAN0,Metrobús Teatro Blanquita,19.43864,-99.13997,FF9A03
METROBUSL4-REPCHILE0,Metrobús República de Chile,19.43797,-99.1359,FF9A03
METROBUSL4-REPARGEN0,Metrobús República de Argentina,19.43741,-99.132,FF9A03
METROBUSL4-TEATROPUEB0,Metrobús Teatro del Pueblo,19.43677,-99.12762,FF9A03
METROBUSL4-MIXCALCO0,Metrobús Mixcalco,19.43632,-99.12416,FF9A03
METROBUSL4-FERROCINT0,Metrobús Ferrocarril de Cintura,19.436,-99.12161,FF9A03
METROBUSL4-MORELOS0,Metrobús Morelos,19.43581,-99.119,FF9A03
METROBUSL4-ARCHGRALNAC0,Metrobús Archivo General de la Nación,19.43536,-99.11518,FF9A03
METROBUSL4-LAZARO0,Metrobús San Lázaro,19.43112,-99.11543,FF9A03
METROBUSL4-MOCTEZUMA,Metrobús Moctezuma,19.42689,-99.11198,FF9A03
METROBUSL4-EDOMOLINA,Metrobús Eduardo Molina,19.42718,-99.11623,FF9A03
METROBUSL4-HOSPBALBUE,Metrobús Hospital Balbuena,19.4251,-99.11615,FF9A03
METROBUSL4-CECILIOROB0,Metrobús Cecilio Robelo,19.42517,-99.11987,FF9A03
METROBUSL4-MDOSONORA0,Metrobús Mercado de Sonora,19.42318,-99.12392,FF9A03
METROBUSL4-MERCED,Metrobús La Merced,19.42545,-99.12595,FF9A03
METROBUSL4-CRUCESNTE,Metrobús Las Cruces Norte,19.4287,-99.12927,FF9A03
METROBUSL4-CRUCESSUR,Metrobús Las Cruces Sur,19.42616,-99.12992,FF9A03
METROBUSL4-MUSEOCDAD0,Metrobús Museo de la Ciudad,19.42893,-99.1328,FF9A03
METROBUSL4-PINOSUAREZ,Metrobús Pino Suárez,19.42666,-99.13278,FF9A03
METROBUSL4-ISABELCATOLI0,Metrobús Isabel la Católica,19.42962,-99.13701,FF9A03
METROBUSL4-SALVADOR0,Metrobús El Salvador,19.43007,-99.13942,FF9A03
METROBUSL4-EJECTRAL0,Metrobús Eje Central,19.43033,-99.14193,FF9A03
METROBUSL4-MDOSANJUAN0,Metrobús Mercados San Juan,19.43077,-99.14465,FF9A03
METROBUSL4-VOCA5,Metrobús Vocacional 5,19.43176,-99.15095,FF9A03
METROBUSL4-GTACOLON0,Metrobús Glorieta de Colón,19.43501,-99.15337,FF9A03
METROBUSL4-AEROT2,Metrobús Terminal 2 - Aeropuerto,19.42148,-99.07725,FF9A03
METROBUSL5-RIOREMEDIOS,Metrobús Río de los Remedios,19.50711,-99.08593,141982
METROBUSL5-NEWSDIVINE,Metrobús 314 Memorial New's Divine,19.50088,-99.08891,141982
METROBUSL5-5MAYO,Metrobús 5 de Mayo,19.49716,-99.09044,141982
METROBUSL5-VASCOQUIRO,Metrobús Vasco de Quiroga,19.49335,-99.09202,141982
METROBUSL5-COYOL,Metrobús El Coyol,19.48746,-99.09447,141982
METROBUSL5-PREPA3,Metrobús Preparatoria 3,19.4836,-99.09618,141982
METROBUSL5-SANJUANARAGO,Metrobús San Juan de Aragón,19.47996,-99.09772,141982
METROBUSL5-RIOGPE,Metrobús Río de Guadalupe,19.47607,-99.0993,141982
METROBUSL5-TALISMAN,Metrobús Talisman,19.47108,-99.10141,141982
METROBUSL5-VICTORIA,Metrobús Victoria,19.46742,-99.10291,141982
METROBUSL5-OTE101,Metrobús Oriente 101,19.4609,-99.10568,141982
METROBUSL5-RIOSTACOLETA,Metrobús Río Santa Coleta,19.45608,-99.10756,141982
METROBUSL5-RIOCONSULADO,Metrobús Río Consulado,19.45369,-99.10854,141982
METROBUSL5-CANALNTE,Metrobús Canal del Norte,19.4496,-99.11037,141982
METROBUSL5-DVOEDOMOLINA,Metrobús Deportivo Eduardo Molina,19.44478,-99.11212,141982
METROBUSL5-SANLAZARO,Metrobús San Lázaro Norte,19.43122,-99.1152,141982
METROBUSL6-ROSARIO,Metrobús El Rosario,19.50717,-99.19955,E44599
METROBUSL6-COLBACH1,Metrobús Colegio de Bachilleres 1,19.51164,-99.19731,E44599
METROBUSL6-CULTURAS,Metrobús De Las Culturas,19.51094,-99.19261,E44599
METROBUSL6-UAMAZCAPOTZ,Metrobús UAM Azcapotzalco,19.50401,-99.18399,E44599
METROBUSL6-TECNOPARQUE,Metrobús Tecnoparque,19.50247,-99.17888,E44599
METROBUSL6-NTE59,Metrobús Norte 59,19.49762,-99.16555,E44599
METROBUSL6-NTE45,Metrobús Norte 45,19.49635,-99.15975,E44599
METROBUSL6-LIND-VALLEJO,Metrobús Lindavista - Vallejo,19.49378,-99.14804,E44599
METROBUSL6-INSTPETRO,Metrobús Instituto del Petróleo,19.49315,-99.14517,E44599
METROBUSL6-BARTOLO,Metrobús San Bartolo,19.49196,-99.13911,E44599
METROBUSL6-IPN,Metrobús Instituto Politécnico Nacional,19.49043,-99.13265,E44599
METROBUSL6-RIOBAMBA,Metrobús Riobamba,19.48865,-99.1279,E44599
METROBUSL6-VILLA,Metrobús La Villa,19.48543,-99.1196,E44599
METROBUSL6-MISTERIOS,Metrobús De Los Misterios,19.48721,-99.11795,E44599
METROBUSL6-HOSPINFVILLA,Metrobús Hospital Infantil La Villa,19.48804,-99.1147,E44599
METROBUSL6-DELGAM,Metrobús Delegación Gustavo A. Madero,19.48389,-99.11234,E44599
METROBUSL6-MARTINCARR,Metrobús Martín Carrera,19.48204,-99.10534,E44599
METROBUSL6-HOSPGRALVILLA,Metrobús Hospital General La Villa,19.48037,-99.10119,E44599
METROBUSL6-GRANCANAL,Metrobús Gran Canal,19.47709,-99.09293,E44599
METROBUSL6-CASASALEMAN,Metrobús Casas Alemán,19.47432,-99.08837,E44599
METROBUSL6-PBLOARAGON,Metrobús Pueblo San Juan de Aragón,19.47101,-99.08636,E44599
METROBUSL6-LORETOFABE,Metrobús Loreto Fabela,19.4674,-99.08098,E44599
METROBUSL6-416PTE,Metrobús 416 Poniente,19.47252,-99.07938,E44599
METROBUSL6-482,Metrobús 482,19.46686,-99.07552,E44599
METROBUSL6-414,Metrobús 414,19.46843,-99.07159,E44599
METROBUSL6-DVOGALEANA,Metrobús Deportivo Los Galeana,19.47846,-99.07805,E44599
METROBUSL6-AMPLPROVID,Metrobús Ampliación Providencia,19.47985,-99.0753,E44599
METROBUSL6-VOLCANFUEGO,Metrobús Volcán de Fuego,19.47697,-99.07252,E44599
METROBUSL6-PRADERA,Metrobús La Pradera,19.47313,-99.06867,E44599
METROBUSL6-416OTE,Metrobús 416 Oriente,19.47114,-99.07091,E44599
METROBUSL6-COLBACH9,Metrobús Colegio de Bachilleres 9,19.4698,-99.065,E44599
METROBUSL6-FCOMORAZAN,Metrobús Francisco Morazán,19.46705,-99.06183,E44599
METROBUSL6-VILLARAGON,Metrobús Villa de Aragón,19.46492,-99.05952,E44599
METROBUSL7-GARRIDO0,Metrobús Garrido,19.4835,-99.11936,116633
METROBUSL7-TALISMAN0,Metrobús Av. Talismán,19.47899,-99.12108,116633
METROBUSL7-NECAXA0,Metrobús Necaxa,19.47648,-99.12203,116633
METROBUSL7-EXCELSIOR0,Metrobús Excélsior,19.47232,-99.1236,116633
METROBUSL7-ROBLESDZ0,Metrobús Robles Domínguez,19.46862,-99.12498,116633
METROBUSL7-CLAVE0,Metrobús Clave,19.46494,-99.12636,116633
METROBUSL7-MISTERIOS0,Metrobús Misterios,19.46239,-99.12732,116633
METROBUSL7-MDOBEET0,Metrobús Mercado Beethoven,19.45761,-99.12918,116633
METROBUSL7-PERALVILLO0,Metrobús Peralvillo,19.45371,-99.13081,116633
METROBUSL7-TRESCULT0,Metrobús Tres Culturas,19.45126,-99.13258,116633
METROBUSL7-GTACUI0,Metrobús Glorieta Cuitláhuac,19.44947,-99.13399,116633
METROBUSL7-GARIBALDI0,Metrobús Garibaldi,19.44486,-99.1387,116633
METROBUSL7-GTAVIOLETA0,Metrobús Glorieta Violeta,19.44155,-99.14234,116633
METROBUSL7-CABALLITO0,Metrobús El Caballito,19.43607,-99.14906,116633
METROBUSL7-PARIS0,Metrobús París,19.4326,-99.15615,116633
METROBUSL7-PALMA0,Metrobús La Palma,19.42851,-99.16479,116633
METROBUSL7-ANGEL0,Metrobús El Ángel,19.42665,-99.16876,116633
METROBUSL7-DIANA0,Metrobús La Diana,19.42563,-99.17092,116633
METROBUSL7-CHAPU0,Metrobús Chapultepec,19.42406,-99.17427,116633
METROBUSL7-GANDHI1,Metrobús Gandhi,19.42389,-99.18091,116633
METROBUSL7-ANTROPO0,Metrobús Antropología,19.42472,-99.18441,116633
METROBUSL7-AUDITORIO0,Metrobús Auditorio,19.42609,-99.19339,116633
METROBUSL7-CAMPOMARTE0,Metrobús Campo Marte,19.42703,-99.19946,116633
TRENLIGEROL1-XOCHIMILCO,Tren Ligero Xochimilco,19.25946,-99.10804,1F5AF0
TRENLIGEROL1-FCOGOITIA,Tren Ligero Francisco Goitia,19.26074,-99.11124,1F5AF0
TRENLIGEROL1-HUICHAPAN,Tren Ligero Huichapan,19.26445,-99.11863,1F5AF0
TRENLIGEROL1-LANORIA,Tren Ligero La Noria,19.26792,-99.12555,1F5AF0
TRENLIGEROL1-TEPEPAN,Tren Ligero Tepepan,19.27953,-99.13316,1F5AF0
TRENLIGEROL1-PERIFERICO,Tren Ligero Periférico Participación Ciudadana,19.28273,-99.13969,1F5AF0
TRENLIGEROL1-XOMALI,Tren Ligero Xomali,19.28871,-99.14674,1F5AF0
TRENLIGEROL1-HUIPULCO,Tren Ligero Huipulco,19.29749,-99.15069,1F5AF0
TRENLIGEROL1-EAZTECA,Tren Ligero Estadio Azteca,19.30183,-99.14706,1F5AF0
TRENLIGEROL1-ELVERGEL,Tren Ligero El Vergel,19.3072,-99.14307,1F5AF0
TRENLIGEROL1-TEXTITLAN,Tren Ligero Textitlán,19.31257,-99.14058,1F5AF0
TRENLIGEROL1-REGISTROFRAL,Tren Ligero Registro Federal,19.31795,-99.13879,1F5AF0
TRENLIGEROL1-NEZAHUALPILLI,Tren Ligero Nezahualpilli,19.32379,-99.13816,1F5AF0
TRENLIGEROL1-XOTEPINGO,Tren Ligero Xotepingo,19.32749,-99.13931,1F5AF0
TRENLIGEROL1-LAVIRGEN,Tren Ligero La Virgen,19.33171,-99.14062,1F5AF0
TRENLIGEROL1-CDJARDIN,Tren Ligero Ciudad Jardín,19.33573,-99.14186,1F5AF0
TRENLIGEROL1-LASTORRES,Tren Ligero Las Torres,19.34082,-99.14344,1F5AF0
TRENLIGEROL1-TASQUENA,Tren Ligero Tasqueña,19.34368,-99.14048,1F5AF0
CABLEBUSL2-CONST1917,Cablebus Constitución de 1917,19.34597,-99.0638,4EC3E0
CABLEBUSL2-QUETZALCOA,Cablebus Quetzalcóatl,19.32783,-99.04345,4EC3E0
CABLEBUSL2-TORRESBUENA,Cablebus Las Torres Buenavista,19.33179,-99.03083,4EC3E0
CABLEBUSL2-XALPA,Cablebus Xalpa,19.33617,-99.019,4EC3E0
CABLEBUSL2-LOMASESTANC,Cablebus Lomas de la Estancia,19.34083,-99.00811,4EC3E0
CABLEBUSL2-SANMIGUELTEO,Cablebus San Miguel Teotongo,19.34353,-98.98955,4EC3E0
CABLEBUSL2-STAMARTA,Cablebus Santa Marta,19.35952,-98.99398,4EC3E0
CABLEBUSL1-INDIOSVERDE,Cablebus Indios Verdes,19.49544,-99.12226,4EC3E0
CABLEBUSL1-STAMATICOMAN,Cablebus Santa María Ticomán,19.51167,-99.1338,4EC3E0
CABLEBUSL1-PASTORA,Cablebus La Pastora,19.52735,-99.1408,4EC3E0
CABLEBUSL1-CAMPOSREVOL,Cablebus Campos Revolución,19.54027,-99.14196,4EC3E0
CABLEBUSL1-TLALPEXCO,Cablebus Tlalpexco,19.54477,-99.12643,4EC3E0
CABLEBUSL1-CUAUTEPEC,Cablebus Cuautepec,19.55795,-99.13416,4EC3E0
SUBURBANOL1-BUENAVISTA,Suburbano Buenavista,19.44992,-99.15162,FF0000
SUBURBANOL1-FORTUNA,Suburbano Fortuna,19.49175,-99.17107,FF0000
SUBURBANOL1-TLALNEPAN,Suburbano Tlalnepantla,19.53574,-99.18413,FF0000
SUBURBANOL1-SANRAFAEL,Suburbano San Rafael,19.56526,-99.19496,FF0000
SUBURBANOL1-LECHERIA,Suburbano Lechería,19.59921,-99.18675,FF0000
SUBURBANOL1-TULTITLAN,Suburbano Tultitlán,19.63551,-99.18039,FF0000
SUBURBANOL1-CUAUTITLAN,Suburbano Cuautitlán,19.6671,-99.1763,FF0000
